{
  "holyplaces": [
    {
      "id": "alexander-nevsky",
      "name": "Храм-паметник Александър Невски",
      "type": "катедрала",
      "denomination": "православна",
      "city": "София",
      "address": "пл. Александър Невски, София 1000",
      "latitude": 42.6959,
      "longitude": 23.3329,
      "description": "Най-големият православен храм на Балканския полуостров",
      "website": "https://www.cathedral.bg/",
      "phone": "+359 2 988 1704",
      "workingHours": "07:00 - 19:00",
      "image": "images/alexander-nevsky.jpg"
    },
    {
      "id": "rila-monastery",
      "name": "Рилски манастир",
      "type": "манастир",
      "denomination": "православна",
      "city": "Рила",
      "address": "Рилски манастир, 2643 Рила",
      "latitude": 42.1333,
      "longitude": 23.3403,
      "description": "Най-големият и най-известен православен манастир в България",
      "website": "https://rilskimanastir.org/",
      "phone": "+359 7054 2208",
      "workingHours": "07:00 - 20:00",
      "image": "images/rila-monastery.jpg"
    },
    {
      "id": "catholic-cathedral-sofia",
      "name": "Катедрала Свети Йосиф",
      "type": "катедрала",
      "denomination": "католическа",
      "city": "София",
      "address": "ул. Оборище 33, София 1504",
      "latitude": 42.6924,
      "longitude": 23.3379,
      "description": "Католическа катедрала в София",
      "website": "https://catholic-cathedral-sofia.org/",
      "phone": "+359 2 943 3243",
      "workingHours": "08:00 - 18:00",
      "image": "images/catholic-cathedral.jpg"
    },
    {
      "id": "dragalevski-monastery",
      "name": "Драгалевски манастир",
      "type": "манастир",
      "denomination": "православна",
      "city": "София",
      "address": "кв. Драгалевци, София",
      "latitude": 42.6231,
      "longitude": 23.2939,
      "description": "Средновековен манастир в полите на Витоша",
      "website": "",
      "phone": "",
      "workingHours": "08:00 - 17:00",
      "image": "images/dragalevski.jpg"
    },
    {
      "id": "banya-bashi-mosque",
      "name": "Джамия Баня Баши",
      "type": "джамия",
      "denomination": "мюсюлманска",
      "city": "София",
      "address": "бул. Мария Луиза 2, София 1000",
      "latitude": 42.6982,
      "longitude": 23.3241,
      "description": "Единствената действаща джамия в София",
      "website": "",
      "phone": "+359 2 987 3095",
      "workingHours": "05:00 - 22:00",
      "image": "images/banya-bashi.jpg"
    }
  ]
}